{
	"locations": [
		{
			"_ID": 27,
			"_streetNumber": 100,
			"_street": "Nicolls Rd",
			"_unit": "0",
			"_city": "Stony Brook",
			"_state": "NY",
			"_zipcode": 11794,
			"_lat": 40.909696,
			"_long": -73.113434
		},
		{
			"_ID": 27,
			"_streetNumber": 100,
			"_street": "Nicolls Rd",
			"_unit": "0",
			"_city": "Stony Brook",
			"_state": "NY",
			"_zipcode": 11794,
			"_lat": 40.909696,
			"_long": -73.113434
		},
		{
			"_ID": 28,
			"_streetNumber": 1,
			"_street": "Education Dr",
			"_unit": "0",
			"_city": "Garden City",
			"_state": "NY",
			"_zipcode": 11530,
			"_lat": 40.730794,
			"_long": -73.591287
		},
		{
			"_ID": 29,
			"_streetNumber": 1000,
			"_street": "Hempstead Turnpike",
			"_unit": "0",
			"_city": "Hempstead",
			"_state": "NY",
			"_zipcode": 11549,
			"_lat": 40.716792,
			"_long": -73.599404
		},
		{
			"_ID": 30,
			"_streetNumber": 77,
			"_street": "Massachusetts Ave",
			"_unit": "0",
			"_city": "Cambridge",
			"_state": "MA",
			"_zipcode": 2139,
			"_lat": 42.363672,
			"_long": -71.101502
		},
		{
			"_ID": 31,
			"_streetNumber": 1148,
			"_street": "5 AVE",
			"_unit": "0",
			"_city": "New York",
			"_state": "NY",
			"_zipcode": 10128,
			"_lat": 40.785334,
			"_long": -73.957351
		}
	],
	"num_canvassers": 30,
	"estimated_visit_time": 60,
	"workday_limit": 360,
	"avg_travel_speed": 804
}