{
	"locations": [
		{
			"_ID": 1,
			"_streetNumber": 100,
			"_street": "Nicolls Rd",
			"_unit": "0",
			"_city": "Stony Brook",
			"_state": "NY",
			"_zipcode": 11794,
			"_lat": 40.909696,
			"_long": -73.113434,
			"_route": 0
		},
		{
			"_ID": 1,
			"_streetNumber": 100,
			"_street": "Nicolls Rd",
			"_unit": "0",
			"_city": "Stony Brook",
			"_state": "NY",
			"_zipcode": 11794,
			"_lat": 40.909696,
			"_long": -73.113434,
			"_route": 0
		},
		{
			"_ID": 2,
			"_streetNumber": 1,
			"_street": "Education Dr",
			"_unit": "0",
			"_city": "Garden City",
			"_state": "NY",
			"_zipcode": 11530,
			"_lat": 40.730794,
			"_long": -73.591287,
			"_route": 2
		},
		{
			"_ID": 3,
			"_streetNumber": 1000,
			"_street": "Hempstead Turnpike",
			"_unit": "0",
			"_city": "Hempstead",
			"_state": "NY",
			"_zipcode": 11549,
			"_lat": 40.716792,
			"_long": -73.599404,
			"_route": 3
		},
		{
			"_ID": 4,
			"_streetNumber": 1,
			"_street": "South Ave",
			"_unit": "0",
			"_city": "Garden City",
			"_state": "NY",
			"_zipcode": 11530,
			"_lat": 40.722221,
			"_long": -73.651099,
			"_route": 4
		},
		{
			"_ID": 5,
			"_streetNumber": 188,
			"_street": "Merritts Rd",
			"_unit": "0",
			"_city": "Farmingdale",
			"_state": "NY",
			"_zipcode": 11735,
			"_lat": 40.724216,
			"_long": -73.459155,
			"_route": 7
		},
		{
			"_ID": 6,
			"_streetNumber": 234,
			"_street": "Main St",
			"_unit": "0",
			"_city": "Farmingdale",
			"_state": "NY",
			"_zipcode": 11735,
			"_lat": 40.722987,
			"_long": -73.442116,
			"_route": 5
		},
		{
			"_ID": 7,
			"_streetNumber": 202,
			"_street": "Airport Plaza Blvd",
			"_unit": "0",
			"_city": "Farmingdale",
			"_state": "NY",
			"_zipcode": 11735,
			"_lat": 40.739139,
			"_long": -73.419253,
			"_route": 9
		},
		{
			"_ID": 8,
			"_streetNumber": 2245,
			"_street": "Broadhollow Rd",
			"_unit": "0",
			"_city": "Farmingdale",
			"_state": "NY",
			"_zipcode": 11735,
			"_lat": 40.725064,
			"_long": -73.423329,
			"_route": 8
		},
		{
			"_ID": 9,
			"_streetNumber": 5316,
			"_street": "Nesconset highway",
			"_unit": "0",
			"_city": "Port Jefferson Station",
			"_state": "NY",
			"_zipcode": 11776,
			"_lat": 40.921377,
			"_long": -73.05201,
			"_route": 0
		},
		{
			"_ID": 10,
			"_streetNumber": 75,
			"_street": "Merritts Rd",
			"_unit": "0",
			"_city": "Farmingdale",
			"_state": "NY",
			"_zipcode": 11735,
			"_lat": 40.724216,
			"_long": -73.459155,
			"_route": 6
		},
		{
			"_ID": 11,
			"_streetNumber": 213,
			"_street": "Broadway Mall",
			"_unit": "0",
			"_city": "Hicksville",
			"_state": "NY",
			"_zipcode": 11801,
			"_lat": 40.773099,
			"_long": -73.531413,
			"_route": 1
		},
		{
			"_ID": 12,
			"_streetNumber": 213,
			"_street": "Broadway Mall",
			"_unit": "0",
			"_city": "Hicksville",
			"_state": "NY",
			"_zipcode": 11801,
			"_lat": 40.773099,
			"_long": -73.531413,
			"_route": null
		},
		{
			"_ID": 13,
			"_streetNumber": 1148,
			"_street": "5 AVE",
			"_unit": "0",
			"_city": "New York",
			"_state": "NY",
			"_zipcode": 10128,
			"_lat": 40.785334,
			"_long": -73.957351,
			"_route": null
		},
		{
			"_ID": 14,
			"_streetNumber": 1150,
			"_street": "5 AVE",
			"_unit": "0",
			"_city": "New York",
			"_state": "NY",
			"_zipcode": 10029,
			"_lat": 40.788575,
			"_long": -73.954668,
			"_route": null
		},
		{
			"_ID": 15,
			"_streetNumber": 675,
			"_street": "3 AVE",
			"_unit": "0",
			"_city": "New York",
			"_state": "NY",
			"_zipcode": 10017,
			"_lat": 40.754715,
			"_long": -73.971086,
			"_route": null
		},
		{
			"_ID": 16,
			"_streetNumber": 1277,
			"_street": "STADIUM AVE",
			"_unit": "0",
			"_city": "Bronx",
			"_state": "NY",
			"_zipcode": 10465,
			"_lat": 40.841598,
			"_long": -73.820254,
			"_route": null
		},
		{
			"_ID": 17,
			"_streetNumber": 432,
			"_street": "AUTUMN AVE",
			"_unit": "0",
			"_city": "Brooklyn",
			"_state": "NY",
			"_zipcode": 11208,
			"_lat": 40.676824,
			"_long": -73.868396,
			"_route": null
		},
		{
			"_ID": 18,
			"_streetNumber": 5602,
			"_street": "BEVERLEY RD",
			"_unit": "0",
			"_city": "Brooklyn",
			"_state": "NY",
			"_zipcode": 11203,
			"_lat": 40.64614,
			"_long": -73.932716,
			"_route": null
		},
		{
			"_ID": 19,
			"_streetNumber": 623,
			"_street": "Linden Blvd",
			"_unit": "0",
			"_city": "Brooklyn",
			"_state": "NY",
			"_zipcode": 11203,
			"_lat": 40.653501,
			"_long": -73.935416,
			"_route": null
		},
		{
			"_ID": 20,
			"_streetNumber": 1423,
			"_street": "Albemarle Rd",
			"_unit": "0",
			"_city": "Brooklyn",
			"_state": "NY",
			"_zipcode": 11226,
			"_lat": 40.648193,
			"_long": -73.956463,
			"_route": null
		},
		{
			"_ID": 21,
			"_streetNumber": 7923,
			"_street": "Colonial Rd",
			"_unit": "0",
			"_city": "Brooklyn",
			"_state": "NY",
			"_zipcode": 11209,
			"_lat": 40.629833,
			"_long": -74.034362,
			"_route": null
		},
		{
			"_ID": 22,
			"_streetNumber": 637,
			"_street": "VINCENT AVE",
			"_unit": "0",
			"_city": "Bronx",
			"_state": "NY",
			"_zipcode": 10465,
			"_lat": 40.830551,
			"_long": -73.818118,
			"_route": null
		},
		{
			"_ID": 23,
			"_streetNumber": 1912,
			"_street": "Lurting Ave",
			"_unit": "0",
			"_city": "Bronx",
			"_state": "NY",
			"_zipcode": 10461,
			"_lat": 40.848129,
			"_long": -73.852865,
			"_route": null
		},
		{
			"_ID": 24,
			"_streetNumber": 1827,
			"_street": "Mayflower Ave",
			"_unit": "0",
			"_city": "Bronx",
			"_state": "NY",
			"_zipcode": 10461,
			"_lat": 40.851313,
			"_long": -73.833676,
			"_route": null
		},
		{
			"_ID": 25,
			"_streetNumber": 4445,
			"_street": "Carpenter Ave",
			"_unit": "0",
			"_city": "Bronx",
			"_state": "NY",
			"_zipcode": 10470,
			"_lat": 40.90237,
			"_long": -73.854546,
			"_route": null
		},
		{
			"_ID": 26,
			"_streetNumber": 1427,
			"_street": "Noble Ave",
			"_unit": "0",
			"_city": "Bronx",
			"_state": "NY",
			"_zipcode": 10472,
			"_lat": 40.830833,
			"_long": -73.870012,
			"_route": null
		},
		{
			"_ID": 27,
			"_streetNumber": 1500,
			"_street": "Mace Ave",
			"_unit": "0",
			"_city": "Bronx",
			"_state": "NY",
			"_zipcode": 10469,
			"_lat": 40.862536,
			"_long": -73.840533,
			"_route": null
		},
		{
			"_ID": 28,
			"_streetNumber": 610,
			"_street": "Woodward Ave",
			"_unit": "0",
			"_city": "Ridgewood",
			"_state": "NY",
			"_zipcode": 11385,
			"_lat": 40.703148,
			"_long": -73.90287,
			"_route": null
		},
		{
			"_ID": 29,
			"_streetNumber": 1405,
			"_street": "Greene Ave",
			"_unit": "0",
			"_city": "Brooklyn",
			"_state": "NY",
			"_zipcode": 11237,
			"_lat": 40.697634,
			"_long": -73.919531,
			"_route": null
		},
		{
			"_ID": 30,
			"_streetNumber": 401,
			"_street": "Fenimore St",
			"_unit": "0",
			"_city": "Brooklyn",
			"_state": "NY",
			"_zipcode": 11225,
			"_lat": 40.658691,
			"_long": -73.950413,
			"_route": null
		},
		{
			"_ID": 31,
			"_streetNumber": 150,
			"_street": "Meserole Ave",
			"_unit": "0",
			"_city": "Brooklyn",
			"_state": "NY",
			"_zipcode": 11222,
			"_lat": 40.727072,
			"_long": -73.953355,
			"_route": null
		},
		{
			"_ID": 32,
			"_streetNumber": 229,
			"_street": "E 51st St",
			"_unit": "0",
			"_city": "New York",
			"_state": "NY",
			"_zipcode": 10022,
			"_lat": 40.756351,
			"_long": -73.969563,
			"_route": null
		},
		{
			"_ID": 33,
			"_streetNumber": 140,
			"_street": "18th St",
			"_unit": "0",
			"_city": "Brooklyn",
			"_state": "NY",
			"_zipcode": 11215,
			"_lat": 40.660776,
			"_long": -73.987961,
			"_route": null
		},
		{
			"_ID": 34,
			"_streetNumber": 14,
			"_street": "Fayette St",
			"_unit": "0",
			"_city": "Brooklyn",
			"_state": "NY",
			"_zipcode": 11206,
			"_lat": 40.700315,
			"_long": -73.940004,
			"_route": null
		},
		{
			"_ID": 35,
			"_streetNumber": 801,
			"_street": "4th Ave",
			"_unit": "0",
			"_city": "Brooklyn",
			"_state": "NY",
			"_zipcode": 11232,
			"_lat": 40.662727,
			"_long": -73.995973,
			"_route": null
		},
		{
			"_ID": 36,
			"_streetNumber": 1179,
			"_street": "Jefferson Ave",
			"_unit": "0",
			"_city": "Brooklyn",
			"_state": "NY",
			"_zipcode": 11221,
			"_lat": 40.685972,
			"_long": -73.926671,
			"_route": null
		},
		{
			"_ID": 37,
			"_streetNumber": 189,
			"_street": "Huntington St",
			"_unit": "0",
			"_city": "Brooklyn",
			"_state": "NY",
			"_zipcode": 11231,
			"_lat": 40.676344,
			"_long": -74.00102,
			"_route": null
		},
		{
			"_ID": 38,
			"_streetNumber": 114,
			"_street": "Sackett St",
			"_unit": "0",
			"_city": "Brooklyn",
			"_state": "NY",
			"_zipcode": 11231,
			"_lat": 40.683624,
			"_long": -73.997544,
			"_route": null
		},
		{
			"_ID": 39,
			"_streetNumber": 1295,
			"_street": "President St",
			"_unit": "0",
			"_city": "Brooklyn",
			"_state": "NY",
			"_zipcode": 11213,
			"_lat": 40.667468,
			"_long": -73.939588,
			"_route": null
		},
		{
			"_ID": 40,
			"_streetNumber": 168,
			"_street": "Washington Park",
			"_unit": "0",
			"_city": "Brooklyn",
			"_state": "NY",
			"_zipcode": 11205,
			"_lat": 40.689798,
			"_long": -73.972862,
			"_route": null
		},
		{
			"_ID": 41,
			"_streetNumber": 593,
			"_street": "Wyona St",
			"_unit": "0",
			"_city": "Brooklyn",
			"_state": "NY",
			"_zipcode": 11207,
			"_lat": 40.669792,
			"_long": -73.892405,
			"_route": null
		},
		{
			"_ID": 42,
			"_streetNumber": 12,
			"_street": "State Rd",
			"_unit": "0",
			"_city": "Breezy Point",
			"_state": "NY",
			"_zipcode": 11697,
			"_lat": 40.567291,
			"_long": -73.884542,
			"_route": null
		},
		{
			"_ID": 43,
			"_streetNumber": 213,
			"_street": "Spencer St",
			"_unit": "0",
			"_city": "Brooklyn",
			"_state": "NY",
			"_zipcode": 11205,
			"_lat": 40.694486,
			"_long": -73.955457,
			"_route": null
		},
		{
			"_ID": 44,
			"_streetNumber": 1496,
			"_street": "Oakley St",
			"_unit": "0",
			"_city": "Bronx",
			"_state": "NY",
			"_zipcode": 10469,
			"_lat": 40.87976,
			"_long": -73.850449,
			"_route": null
		},
		{
			"_ID": 45,
			"_streetNumber": 114,
			"_street": "E 3rd St",
			"_unit": "0",
			"_city": "New York",
			"_state": "NY",
			"_zipcode": 10009,
			"_lat": 40.723575,
			"_long": -73.984883,
			"_route": null
		},
		{
			"_ID": 46,
			"_streetNumber": 127,
			"_street": "E 7th St",
			"_unit": "0",
			"_city": "New York",
			"_state": "NY",
			"_zipcode": 10009,
			"_lat": 40.724676,
			"_long": -73.98073,
			"_route": null
		},
		{
			"_ID": 47,
			"_streetNumber": 203,
			"_street": "Avenue A",
			"_unit": "0",
			"_city": "New York",
			"_state": "NY",
			"_zipcode": 10009,
			"_lat": 40.725322,
			"_long": -73.984258,
			"_route": null
		},
		{
			"_ID": 48,
			"_streetNumber": 80,
			"_street": "E 7th St",
			"_unit": "0",
			"_city": "New York",
			"_state": "NY",
			"_zipcode": 10003,
			"_lat": 40.728496,
			"_long": -73.988928,
			"_route": null
		},
		{
			"_ID": 49,
			"_streetNumber": 13,
			"_street": "Downing St",
			"_unit": "0",
			"_city": "New York",
			"_state": "NY",
			"_zipcode": 10014,
			"_lat": 40.729222,
			"_long": -74.002791,
			"_route": null
		},
		{
			"_ID": 50,
			"_streetNumber": 352,
			"_street": "W 11th St",
			"_unit": "0",
			"_city": "New York",
			"_state": "NY",
			"_zipcode": 10014,
			"_lat": 40.735848,
			"_long": -74.007402,
			"_route": null
		},
		{
			"_ID": 51,
			"_streetNumber": 313,
			"_street": "Church St",
			"_unit": "0",
			"_city": "New York",
			"_state": "NY",
			"_zipcode": 10013,
			"_lat": 40.719682,
			"_long": -74.003879,
			"_route": null
		},
		{
			"_ID": 52,
			"_streetNumber": 511,
			"_street": "Revere Ave",
			"_unit": "0",
			"_city": "Bronx",
			"_state": "NY",
			"_zipcode": 10465,
			"_lat": 40.824288,
			"_long": -73.822424,
			"_route": null
		},
		{
			"_ID": 53,
			"_streetNumber": 2305,
			"_street": "Wilson Ave",
			"_unit": "0",
			"_city": "Bronx",
			"_state": "NY",
			"_zipcode": 10469,
			"_lat": 40.866916,
			"_long": -73.849078,
			"_route": null
		},
		{
			"_ID": 54,
			"_streetNumber": 1524,
			"_street": "Lurting Ave",
			"_unit": "0",
			"_city": "Bronx",
			"_state": "NY",
			"_zipcode": 10461,
			"_lat": 40.848129,
			"_long": -73.852865,
			"_route": null
		},
		{
			"_ID": 55,
			"_streetNumber": 504,
			"_street": "E 88th St",
			"_unit": "0",
			"_city": "New York",
			"_state": "NY",
			"_zipcode": 10128,
			"_lat": 40.780178,
			"_long": -73.953652,
			"_route": null
		},
		{
			"_ID": 56,
			"_streetNumber": 286,
			"_street": "17th St",
			"_unit": "0",
			"_city": "Brooklyn",
			"_state": "NY",
			"_zipcode": 11215,
			"_lat": 40.660936,
			"_long": -73.986671,
			"_route": null
		},
		{
			"_ID": 57,
			"_streetNumber": 1124,
			"_street": "Prospect Pl",
			"_unit": "0",
			"_city": "Brooklyn",
			"_state": "NY",
			"_zipcode": 11213,
			"_lat": 40.673566,
			"_long": -73.936246,
			"_route": null
		},
		{
			"_ID": 58,
			"_streetNumber": 215,
			"_street": "Franklin Ave",
			"_unit": "0",
			"_city": "Brooklyn",
			"_state": "NY",
			"_zipcode": 11205,
			"_lat": 40.69337,
			"_long": -73.95805,
			"_route": null
		},
		{
			"_ID": 59,
			"_streetNumber": 15,
			"_street": "Cambridge Pl",
			"_unit": "0",
			"_city": "Brooklyn",
			"_state": "NY",
			"_zipcode": 11238,
			"_lat": 40.68478,
			"_long": -73.963072,
			"_route": null
		},
		{
			"_ID": 60,
			"_streetNumber": 307,
			"_street": "Monroe St",
			"_unit": "0",
			"_city": "Brooklyn",
			"_state": "NY",
			"_zipcode": 11216,
			"_lat": 40.685757,
			"_long": -73.945304,
			"_route": null
		},
		{
			"_ID": 61,
			"_streetNumber": 41,
			"_street": "Woodbine St",
			"_unit": "0",
			"_city": "Brooklyn",
			"_state": "NY",
			"_zipcode": 11221,
			"_lat": 40.694497,
			"_long": -73.914808,
			"_route": null
		},
		{
			"_ID": 62,
			"_streetNumber": 682,
			"_street": "Onderdonk Ave",
			"_unit": "0",
			"_city": "Ridgewood",
			"_state": "NY",
			"_zipcode": 11385,
			"_lat": 40.702233,
			"_long": -73.904082,
			"_route": null
		},
		{
			"_ID": 63,
			"_streetNumber": 17,
			"_street": "Marion Walk",
			"_unit": "0",
			"_city": "Breezy Point",
			"_state": "NY",
			"_zipcode": 11697,
			"_lat": 40.557554,
			"_long": -73.92111,
			"_route": null
		},
		{
			"_ID": 64,
			"_streetNumber": 3532,
			"_street": "Grace Ave",
			"_unit": "0",
			"_city": "Bronx",
			"_state": "NY",
			"_zipcode": 10466,
			"_lat": 40.880633,
			"_long": -73.840451,
			"_route": null
		},
		{
			"_ID": 65,
			"_streetNumber": 927,
			"_street": "Quincy Ave",
			"_unit": "0",
			"_city": "Bronx",
			"_state": "NY",
			"_zipcode": 10465,
			"_lat": 40.825158,
			"_long": -73.825009,
			"_route": null
		},
		{
			"_ID": 66,
			"_streetNumber": 2762,
			"_street": "Claflin Ave",
			"_unit": "0",
			"_city": "Bronx",
			"_state": "NY",
			"_zipcode": 10468,
			"_lat": 40.872144,
			"_long": -73.900039,
			"_route": null
		},
		{
			"_ID": 67,
			"_streetNumber": 2871,
			"_street": "Randall Ave",
			"_unit": "0",
			"_city": "Bronx",
			"_state": "NY",
			"_zipcode": 10465,
			"_lat": 40.826129,
			"_long": -73.821871,
			"_route": null
		},
		{
			"_ID": 68,
			"_streetNumber": 946,
			"_street": "Anderson Ave",
			"_unit": "0",
			"_city": "Bronx",
			"_state": "NY",
			"_zipcode": 10452,
			"_lat": 40.832616,
			"_long": -73.926556,
			"_route": null
		},
		{
			"_ID": 69,
			"_streetNumber": 168,
			"_street": "Rivington St",
			"_unit": "0",
			"_city": "New York",
			"_state": "NY",
			"_zipcode": 10002,
			"_lat": 40.719364,
			"_long": -73.985602,
			"_route": null
		},
		{
			"_ID": 70,
			"_streetNumber": 138,
			"_street": "E 3rd St",
			"_unit": "0",
			"_city": "New York",
			"_state": "NY",
			"_zipcode": 10009,
			"_lat": 40.723575,
			"_long": -73.984883,
			"_route": null
		}
	],
	"num_canvassers": 8,
	"estimated_visit_time": 15,
	"workday_limit": 360,
	"avg_travel_speed": 804
}