{
	"locations": [
		{
			"_ID": 51,
			"_streetNumber": 100,
			"_street": "Nicolls Rd",
			"_unit": "0",
			"_city": "Stony Brook",
			"_state": "NY",
			"_zipcode": 11794,
			"_lat": 40.909696,
			"_long": -73.113434
		},
		{
<<<<<<< HEAD
			"_ID": 42,
=======
			"_ID": 52,
>>>>>>> a4faaf29a5c30bb65f6449931c2c7bdd08df21d3
			"_streetNumber": 1,
			"_street": "Education Dr",
			"_unit": "0",
			"_city": "Garden City",
			"_state": "NY",
			"_zipcode": 11530,
			"_lat": 40.730794,
			"_long": -73.591287
		},
		{
<<<<<<< HEAD
			"_ID": 43,
=======
			"_ID": 53,
>>>>>>> a4faaf29a5c30bb65f6449931c2c7bdd08df21d3
			"_streetNumber": 1000,
			"_street": "Hempstead Turnpike",
			"_unit": "0",
			"_city": "Hempstead",
			"_state": "NY",
			"_zipcode": 11549,
			"_lat": 40.716792,
			"_long": -73.599404
		},
		{
<<<<<<< HEAD
			"_ID": 44,
=======
			"_ID": 54,
>>>>>>> a4faaf29a5c30bb65f6449931c2c7bdd08df21d3
			"_streetNumber": 77,
			"_street": "Massachusetts Ave",
			"_unit": "0",
			"_city": "Cambridge",
			"_state": "MA",
			"_zipcode": 2139,
			"_lat": 42.360091,
			"_long": -71.09416
		},
		{
<<<<<<< HEAD
			"_ID": 45,
=======
			"_ID": 55,
>>>>>>> a4faaf29a5c30bb65f6449931c2c7bdd08df21d3
			"_streetNumber": 1,
			"_street": "South Ave",
			"_unit": "0",
			"_city": "Garden City",
			"_state": "NY",
			"_zipcode": 11530,
			"_lat": 40.722221,
			"_long": -73.651099
		},
		{
<<<<<<< HEAD
			"_ID": 46,
=======
			"_ID": 56,
>>>>>>> a4faaf29a5c30bb65f6449931c2c7bdd08df21d3
			"_streetNumber": 188,
			"_street": "Merritts Rd",
			"_unit": "0",
			"_city": "Farmingdale",
			"_state": "NY",
			"_zipcode": 11735,
			"_lat": 40.724216,
			"_long": -73.459155
		},
		{
<<<<<<< HEAD
			"_ID": 47,
=======
			"_ID": 57,
>>>>>>> a4faaf29a5c30bb65f6449931c2c7bdd08df21d3
			"_streetNumber": 234,
			"_street": "Main St",
			"_unit": "0",
			"_city": "Farmingdale",
			"_state": "NY",
			"_zipcode": 11735,
			"_lat": 40.722987,
			"_long": -73.442116
		},
		{
<<<<<<< HEAD
			"_ID": 48,
=======
			"_ID": 58,
>>>>>>> a4faaf29a5c30bb65f6449931c2c7bdd08df21d3
			"_streetNumber": 202,
			"_street": "Airport Plaza Blvd",
			"_unit": "0",
			"_city": "Farmingdale",
			"_state": "NY",
			"_zipcode": 11735,
			"_lat": 40.739139,
			"_long": -73.419253
		},
		{
<<<<<<< HEAD
			"_ID": 49,
=======
			"_ID": 59,
>>>>>>> a4faaf29a5c30bb65f6449931c2c7bdd08df21d3
			"_streetNumber": 2245,
			"_street": "Broadhollow Rd",
			"_unit": "0",
			"_city": "Farmingdale",
			"_state": "NY",
			"_zipcode": 11735,
			"_lat": 40.725064,
			"_long": -73.423329
		},
		{
<<<<<<< HEAD
			"_ID": 50,
=======
			"_ID": 60,
>>>>>>> a4faaf29a5c30bb65f6449931c2c7bdd08df21d3
			"_streetNumber": 5316,
			"_street": "Nesconset highway",
			"_unit": "0",
			"_city": "Port Jefferson Station",
			"_state": "NY",
			"_zipcode": 11776,
			"_lat": 40.921377,
			"_long": -73.05201
		},
		{
			"_ID": 48,
			"_streetNumber": 75,
			"_street": "Merritts Rd",
			"_unit": "0",
			"_city": "Farmingdale",
			"_state": "NY",
			"_zipcode": 11735,
			"_lat": 40.724216,
			"_long": -73.459155
		},
		{
			"_ID": 49,
			"_streetNumber": 213,
			"_street": "Broadway Mall",
			"_unit": "0",
			"_city": "Hicksville",
			"_state": "NY",
			"_zipcode": 11801,
			"_lat": 40.773099,
			"_long": -73.531413
		}
	],
	"num_canvassers": 14,
	"estimated_visit_time": 15,
	"workday_limit": 360,
	"avg_travel_speed": 804
}