{
	"locations": [
		{
			"_ID": 82,
			"_streetNumber": 100,
			"_street": "Nicolls Rd",
			"_unit": "0",
			"_city": "Stony Brook",
			"_state": "NY",
			"_zipcode": 11794,
			"_lat": 40.909696,
			"_long": -73.113434,
			"_route": 0
		},
		{
			"_ID": 82,
			"_streetNumber": 100,
			"_street": "Nicolls Rd",
			"_unit": "0",
			"_city": "Stony Brook",
			"_state": "NY",
			"_zipcode": 11794,
			"_lat": 40.909696,
			"_long": -73.113434,
			"_route": 0
		},
		{
			"_ID": 83,
			"_streetNumber": 1,
			"_street": "Education Dr",
			"_unit": "0",
			"_city": "Garden City",
			"_state": "NY",
			"_zipcode": 11530,
			"_lat": 40.730794,
			"_long": -73.591287,
			"_route": 2
		},
		{
			"_ID": 84,
			"_streetNumber": 1000,
			"_street": "Hempstead Turnpike",
			"_unit": "0",
			"_city": "Hempstead",
			"_state": "NY",
			"_zipcode": 11549,
			"_lat": 40.716792,
			"_long": -73.599404,
			"_route": 3
		},
		{
			"_ID": 85,
			"_streetNumber": 77,
			"_street": "Massachusetts Ave",
			"_unit": "0",
			"_city": "Cambridge",
			"_state": "MA",
			"_zipcode": 2139,
			"_lat": 42.360091,
			"_long": -71.09416,
			"_route": 1
		},
		{
			"_ID": 86,
			"_streetNumber": 1,
			"_street": "South Ave",
			"_unit": "0",
			"_city": "Garden City",
			"_state": "NY",
			"_zipcode": 11530,
			"_lat": 40.722221,
			"_long": -73.651099,
			"_route": 4
		},
		{
			"_ID": 87,
			"_streetNumber": 188,
			"_street": "Merritts Rd",
			"_unit": "0",
			"_city": "Farmingdale",
			"_state": "NY",
			"_zipcode": 11735,
			"_lat": 40.724216,
			"_long": -73.459155,
			"_route": 6
		},
		{
			"_ID": 88,
			"_streetNumber": 234,
			"_street": "Main St",
			"_unit": "0",
			"_city": "Farmingdale",
			"_state": "NY",
			"_zipcode": 11735,
			"_lat": 40.713999,
			"_long": -73.433673,
			"_route": 7
		},
		{
			"_ID": 89,
			"_streetNumber": 202,
			"_street": "Airport Plaza Blvd",
			"_unit": "0",
			"_city": "Farmingdale",
			"_state": "NY",
			"_zipcode": 11735,
			"_lat": 40.739139,
			"_long": -73.419253,
			"_route": 9
		},
		{
			"_ID": 90,
			"_streetNumber": 2245,
			"_street": "Broadhollow Rd",
			"_unit": "0",
			"_city": "Farmingdale",
			"_state": "NY",
			"_zipcode": 11735,
			"_lat": 40.725064,
			"_long": -73.423329,
			"_route": 8
		},
		{
			"_ID": 91,
			"_streetNumber": 5316,
			"_street": "Nesconset highway",
			"_unit": "0",
			"_city": "Port Jefferson Station",
			"_state": "NY",
			"_zipcode": 11776,
			"_lat": 40.921377,
			"_long": -73.05201,
			"_route": 0
		},
		{
			"_ID": 92,
			"_streetNumber": 75,
			"_street": "Merritts Rd",
			"_unit": "0",
			"_city": "Farmingdale",
			"_state": "NY",
			"_zipcode": 11735,
			"_lat": 40.724216,
			"_long": -73.459155,
			"_route": 5
		},
		{
			"_ID": 93,
			"_streetNumber": 213,
			"_street": "Broadway Mall",
			"_unit": "0",
			"_city": "Hicksville",
			"_state": "NY",
			"_zipcode": 11801,
			"_lat": 40.773099,
			"_long": -73.531413,
			"_route": 1
		}
	],
	"num_canvassers": 14,
	"estimated_visit_time": 15,
	"workday_limit": 360,
	"avg_travel_speed": 804
}